0	86	0	38584255	0	UNKNOWN
14	86	0	86EECD	0	UNKNOWN
28	7B	EE	FFFFFFFF	0	UNKNOWN
3C	FF	FF	FFFFFFFF	0	UNKNOWN
50	FF	FF	FFFFFFFF	0	UNKNOWN
64	FF	FF	FFFFFFFF	0	UNKNOWN
78	FF	FF	FFFFFFFF	0	UNKNOWN
8C	FF	FF	FFFFFFFF	0	UNKNOWN
A0	FF	FF	FFFFFFFF	0	UNKNOWN
B4	FF	FF	FFFFFFFF	0	UNKNOWN
C8	FF	FF	FFFFFFFF	0	UNKNOWN
DC	FF	FF	FFFFFFFF	0	UNKNOWN
F0	FF	FF	FFFFFFFF	0	UNKNOWN
104	FF	FF	FFFFFFFF	0	UNKNOWN
118	FF	FF	FFFFFFFF	0	UNKNOWN
12C	FF	FF	FFFFFFFF	0	UNKNOWN
140	FF	FF	FFFFFFFF	0	UNKNOWN
154	FF	FF	FFFFFFFF	0	UNKNOWN
168	FF	FF	FFFFFFFF	0	UNKNOWN
17C	FF	FF	FFFFFFFF	0	UNKNOWN
190	FF	FF	FFFFFFFF	0	UNKNOWN
1A4	FF	FF	FFFFFFFF	0	UNKNOWN
1B8	FF	FF	FFFFFFFF	0	UNKNOWN
1CC	FF	FF	FFFFFFFF	0	UNKNOWN
1E0	FF	FF	FFFFFFFF	0	UNKNOWN
1F4	FF	FF	FFFFFFFF	0	UNKNOWN
208	FF	FF	FFFFFFFF	0	UNKNOWN
21C	FF	FF	FFFFFFFF	0	UNKNOWN
230	FF	FF	FFFFFFFF	0	UNKNOWN
244	FF	FF	FFFFFFFF	0	UNKNOWN
258	FF	FF	FFFFFFFF	0	UNKNOWN
26C	FF	FF	FFFFFFFF	0	UNKNOWN
280	FF	FF	FFFFFFFF	0	UNKNOWN
294	FF	FF	FFFFFFFF	0	UNKNOWN
2A8	FF	FF	FFFFFFFF	0	UNKNOWN
2BC	FF	FF	FFFFFFFF	0	UNKNOWN
2D0	FF	FF	FFFFFFFF	0	UNKNOWN
2E4	FF	FF	FFFFFFFF	0	UNKNOWN
2F8	FF	FF	FFFFFFFF	0	UNKNOWN
30C	FF	FF	FFFFFFFF	0	UNKNOWN
320	FF	FF	FFFFFFFF	0	UNKNOWN
334	FF	FF	FFFFFFFF	0	UNKNOWN
348	FF	FF	FFFFFFFF	0	UNKNOWN
35C	FF	FF	FFFFFFFF	0	UNKNOWN
370	FF	FF	FFFFFFFF	0	UNKNOWN
384	FF	FF	FFFFFFFF	0	UNKNOWN
398	FF	FF	FFFFFFFF	0	UNKNOWN
3AC	FF	FF	FFFFFFFF	0	UNKNOWN
3C0	FF	FF	FFFFFFFF	0	UNKNOWN
3D4	FF	FF	FFFFFFFF	0	UNKNOWN
3E8	FF	FF	FFFFFFFF	0	UNKNOWN
3FC	FF	FF	FFFFFFFF	0	UNKNOWN
410	FF	FF	FFFFFFFF	0	UNKNOWN
424	FF	FF	FFFFFFFF	0	UNKNOWN
438	FF	FF	FFFFFFFF	0	UNKNOWN
44C	FF	FF	FFFFFFFF	0	UNKNOWN
460	FF	FF	FFFFFFFF	0	UNKNOWN
474	FF	FF	FFFFFFFF	0	UNKNOWN
488	FF	FF	FFFFFFFF	0	UNKNOWN
49C	FF	FF	FFFFFFFF	0	UNKNOWN
4B0	FF	FF	FFFFFFFF	0	UNKNOWN
4C4	FF	FF	FFFFFFFF	0	UNKNOWN
4D8	FF	FF	FFFFFFFF	0	UNKNOWN
4EC	FF	FF	FFFFFFFF	0	UNKNOWN
500	FF	FF	FFFFFFFF	0	UNKNOWN
514	FF	FF	FFFFFFFF	0	UNKNOWN
528	FF	FF	FFFFFFFF	0	UNKNOWN
53C	FF	FF	FFFFFFFF	0	UNKNOWN
550	FF	FF	FFFFFFFF	0	UNKNOWN
564	FF	FF	FFFFFFFF	0	UNKNOWN
578	FF	FF	FFFFFFFF	0	UNKNOWN
58C	FF	FF	FFFFFFFF	0	UNKNOWN
5A0	FF	FF	FFFFFFFF	0	UNKNOWN
5B4	FF	FF	FFFFFFFF	0	UNKNOWN
5C8	FF	FF	FFFFFFFF	0	UNKNOWN
5DC	FF	FF	FFFFFFFF	0	UNKNOWN
5F0	FF	FF	FFFFFFFF	0	UNKNOWN
604	FF	FF	FFFFFFFF	0	UNKNOWN
618	FF	FF	FFFFFFFF	0	UNKNOWN
62C	FF	FF	FFFFFFFF	0	UNKNOWN
640	FF	FF	FFFFFFFF	0	UNKNOWN
654	FF	FF	FFFFFFFF	0	UNKNOWN
668	FF	FF	FFFFFFFF	0	UNKNOWN
67C	FF	FF	FFFFFFFF	0	UNKNOWN
690	FF	FF	FFFFFFFF	0	UNKNOWN
6A4	FF	FF	FFFFFFFF	0	UNKNOWN
6B8	FF	FF	FFFFFFFF	0	UNKNOWN
6CC	FF	FF	FFFFFFFF	0	UNKNOWN
6E0	FF	FF	FFFFFFFF	0	UNKNOWN
6F4	FF	FF	FFFFFFFF	0	UNKNOWN
708	FF	FF	FFFFFFFF	0	UNKNOWN
71C	FF	FF	FFFFFFFF	0	UNKNOWN
730	FF	FF	FFFFFFFF	0	UNKNOWN
744	FF	FF	FFFFFFFF	0	UNKNOWN
758	FF	FF	FFFFFFFF	0	UNKNOWN
76C	FF	FF	FFFFFFFF	0	UNKNOWN
780	FF	FF	FFFFFFFF	0	UNKNOWN
794	FF	FF	FFFFFFFF	0	UNKNOWN
7A8	FF	FF	FFFFFFFF	0	UNKNOWN
7BC	FF	FF	FFFFFFFF	0	UNKNOWN
7D0	FF	FF	FFFFFFFF	0	UNKNOWN
7E4	FF	FF	FFFFFFFF	0	UNKNOWN
7F8	FF	FF	FFFFFFFF	0	UNKNOWN
80C	FF	FF	FFFFFFFF	0	UNKNOWN
820	FF	FF	FFFFFFFF	0	UNKNOWN
834	FF	FF	FFFFFFFF	0	UNKNOWN
848	FF	FF	FFFFFFFF	0	UNKNOWN
85C	FF	FF	FFFFFFFF	0	UNKNOWN
870	FF	FF	FFFFFFFF	0	UNKNOWN
884	FF	FF	FFFFFFFF	0	UNKNOWN
898	FF	FF	FFFFFFFF	0	UNKNOWN
8AC	FF	FF	FFFFFFFF	0	UNKNOWN
8C0	FF	FF	FFFFFFFF	0	UNKNOWN
8D4	FF	FF	FFFFFFFF	0	UNKNOWN
8E8	FF	FF	FFFFFFFF	0	UNKNOWN
8FC	FF	FF	FFFFFFFF	0	UNKNOWN
910	FF	FF	FFFFFFFF	0	UNKNOWN
924	FF	FF	FFFFFFFF	0	UNKNOWN
938	FF	FF	FFFFFFFF	0	UNKNOWN
94C	FF	FF	FFFFFFFF	0	UNKNOWN
960	FF	FF	FFFFFFFF	0	UNKNOWN
974	FF	FF	FFFFFFFF	0	UNKNOWN
988	FF	FF	FFFFFFFF	0	UNKNOWN
99C	FF	FF	FFFFFFFF	0	UNKNOWN
9B0	FF	FF	FFFFFFFF	0	UNKNOWN
9C4	FF	FF	FFFFFFFF	0	UNKNOWN
9D8	FF	FF	FFFFFFFF	0	UNKNOWN
9EC	FF	FF	FFFFFFFF	0	UNKNOWN
A00	FF	FF	FFFFFFFF	0	UNKNOWN
A14	FF	FF	FFFFFFFF	0	UNKNOWN
A28	FF	FF	FFFFFFFF	0	UNKNOWN
A3C	FF	FF	FFFFFFFF	0	UNKNOWN
A50	FF	FF	FFFFFFFF	0	UNKNOWN
A64	FF	FF	FFFFFFFF	0	UNKNOWN
A78	FF	FF	FFFFFFFF	0	UNKNOWN
A8C	FF	FF	FFFFFFFF	0	UNKNOWN
AA0	FF	FF	FFFFFFFF	0	UNKNOWN
AB4	FF	FF	FFFFFFFF	0	UNKNOWN
AC8	FF	FF	FFFFFFFF	0	UNKNOWN
ADC	FF	FF	FFFFFFFF	0	UNKNOWN
AF0	FF	FF	FFFFFFFF	0	UNKNOWN
B04	FF	FF	FFFFFFFF	0	UNKNOWN
B18	FF	FF	FFFFFFFF	0	UNKNOWN
B2C	FF	FF	FFFFFFFF	0	UNKNOWN
B40	FF	FF	FFFFFFFF	0	UNKNOWN
B54	FF	FF	FFFFFFFF	0	UNKNOWN
B68	FF	FF	FFFFFFFF	0	UNKNOWN
B7C	FF	FF	FFFFFFFF	0	UNKNOWN
B90	FF	FF	FFFFFFFF	0	UNKNOWN
BA4	FF	FF	FFFFFFFF	0	UNKNOWN
BB8	FF	FF	FFFFFFFF	0	UNKNOWN
BCC	FF	FF	FFFFFFFF	0	UNKNOWN
BE0	FF	FF	FFFFFFFF	0	UNKNOWN
BF4	FF	FF	FFFFFFFF	0	UNKNOWN
C08	FF	FF	FFFFFFFF	0	UNKNOWN
C1C	FF	FF	FFFFFFFF	0	UNKNOWN
C30	FF	FF	FFFFFFFF	0	UNKNOWN
C44	FF	FF	FFFFFFFF	0	UNKNOWN
C58	FF	FF	FFFFFFFF	0	UNKNOWN
C6C	FF	FF	FFFFFFFF	0	UNKNOWN
C80	FF	FF	FFFFFFFF	0	UNKNOWN
C94	FF	FF	FFFFFFFF	0	UNKNOWN
CA8	FF	FF	FFFFFFFF	0	UNKNOWN
CBC	FF	FF	FFFFFFFF	0	UNKNOWN
CD0	FF	FF	FFFFFFFF	0	UNKNOWN
CE4	FF	FF	FFFFFFFF	0	UNKNOWN
CF8	FF	FF	FFFFFFFF	0	UNKNOWN
D0C	FF	FF	FFFFFFFF	0	UNKNOWN
D20	FF	FF	FFFFFFFF	0	UNKNOWN
D34	FF	FF	FFFFFFFF	0	UNKNOWN
D48	FF	FF	FFFFFFFF	0	UNKNOWN
D5C	FF	FF	FFFFFFFF	0	UNKNOWN
D70	FF	FF	FFFFFFFF	0	UNKNOWN
D84	FF	FF	FFFFFFFF	0	UNKNOWN
D98	FF	FF	FFFFFFFF	0	UNKNOWN
DAC	FF	FF	FFFFFFFF	0	UNKNOWN
DC0	FF	FF	FFFFFFFF	0	UNKNOWN
DD4	FF	FF	FFFFFFFF	0	UNKNOWN
DE8	FF	FF	FFFFFFFF	0	UNKNOWN
DFC	FF	FF	FFFFFFFF	0	UNKNOWN
E10	FF	FF	FFFFFFFF	0	UNKNOWN
E24	FF	FF	FFFFFFFF	0	UNKNOWN
E38	FF	FF	FFFFFFFF	0	UNKNOWN
E4C	FF	FF	FFFFFFFF	0	UNKNOWN
E60	FF	FF	FFFFFFFF	0	UNKNOWN
E74	FF	FF	FFFFFFFF	0	UNKNOWN
E88	FF	FF	FFFFFFFF	0	UNKNOWN
E9C	FF	FF	FFFFFFFF	0	UNKNOWN
EB0	FF	FF	FFFFFFFF	0	UNKNOWN
EC4	FF	FF	FFFFFFFF	0	UNKNOWN
ED8	FF	FF	FFFFFFFF	0	UNKNOWN
EEC	FF	FF	FFFFFFFF	0	UNKNOWN
F00	FF	FF	FFFFFFFF	0	UNKNOWN
F14	FF	FF	FFFFFFFF	0	UNKNOWN
F28	FF	FF	FFFFFFFF	0	UNKNOWN
F3C	FF	FF	FFFFFFFF	0	UNKNOWN
F50	FF	FF	FFFFFFFF	0	UNKNOWN
F64	FF	FF	FFFFFFFF	0	UNKNOWN
F78	FF	FF	FFFFFFFF	0	UNKNOWN
F8C	FF	FF	FFFFFFFF	0	UNKNOWN
Message in FW
6805C	1	6	80FA09	NAV-SOL
68064	1	7	80FABD	NAV-PVT
6806C	1	30	810299	NAV-SVINFO
68074	1	34	810953	NAV-ORB
6807C	1	35	810445	NAV-SAT
68084	1	3	80F995	NAV-STATUS
6808C	1	1	80F81F	NAV-POSECEF
68094	1	2	80F865	NAV-POSLLH
6809C	1	4	80F90B	NAV-DOP
680A4	1	11	80FD21	NAV-VELECEF
680AC	1	12	80FD65	NAV-VELNED
680B4	1	20	80FDEB	NAV-TIMEGPS
680BC	1	23	80FE57	NAV-TIMEGLO
680C4	1	21	80FEED	NAV-TIMEUTC
680CC	1	26	80FF99	NAV-TIMELS
680D4	1	22	810069	NAV-CLOCK
680DC	1	9	810A5F	NAV-ODO
680E4	1	36	810AB5	UNKNOWN
680EC	1	3B	810C3F	NAV-SVIN
680F4	1	3C	810DB1	NAV-RELPOSNED
680FC	D	6	811DCB	UNKNOWN
68104	1	39	810B53	NAV-GEOFENCE
6810C	F0	A	803F97	NMEA
68114	F0	4	804EAF	NMEA
6811C	F0	5	804FC1	NMEA
68124	F0	D	8044A9	NMEA
6812C	F0	0	8042C9	NMEA
68134	F0	2	80489F	NMEA
6813C	F0	3	804B49	NMEA
68144	F0	1	80481F	NMEA
6814C	F0	6	804671	NMEA
68154	F0	7	8049C9	NMEA
6815C	F0	8	8050B1	NMEA
68164	F0	9	8040FB	NMEA
6816C	F0	F	80510B	NMEA
68174	F1	0	805351	pubx00
6817C	F1	3	805551	pubx03
68184	F1	4	805699	pubx04
6818C	B	1	8089E3	AID-INI
68194	C	31	80C401	UNKNOWN
6819C	C	14	80C233	UNKNOWN
681A4	C	34	80C65F	UNKNOWN
681AC	C	43	80CF13	UNKNOWN
681B4	2	20	8110DD	RXM-SVSI
681BC	2	23	8115B1	UNKNOWN
681C4	2	53	8119C1	UNKNOWN
681CC	1	61	810C21	UNKNOWN
681D4	B	31	808DB1	AID-EPH
681DC	B	30	808C7B	AID-ALM
681E4	D	3	811BE1	TIM-TM2
681EC	D	1	811CBB	TIM-TP
681F4	D	10	811E11	UNKNOWN
681FC	A	1B	80E93B	UNKNOWN
68204	A	11	80E84F	UNKNOWN
6820C	A	6	80E959	MON-MSGPP
68214	A	8	80EA17	MON-TXBUF
6821C	A	7	80E9CB	MON-RXBUF
68224	A	2	80EA75	MON-IO
6822C	A	1E	80EB51	UNKNOWN
68234	A	5	80EC71	MON-EXCEPT
6823C	A	9	80ED31	MON-HW
68244	A	B	80EE53	MON-HW2
6824C	A	D	80EEAF	MON-LLC
68254	A	26	80EB2B	UNKNOWN
6825C	A	1F	80EBC5	UNKNOWN
68264	A	1D	80EAD7	MON-SPEC
6826C	A	22	80EC59	UNKNOWN
68274	A	23	80F3F1	UNKNOWN
6827C	A	25	80F493	UNKNOWN
68284	9	13	812C39	UNKNOWN
6828C	C	35	80C95B	UNKNOWN
68294	2	14	8111CD	RXM-MEASX
6829C	A	2B	80F057	UNKNOWN
682A4	3	9	811F95	UNKNOWN
682AC	3	10	812297	TRK-MEAS
682B4	3	B	8120E1	UNKNOWN
682BC	3	F	811F91	TRK-SFRBX
682C4	2	13	8111C7	RXM-SFRBX
682CC	C	10	80C1D1	UNKNOWN
682D4	C	19	80C305	UNKNOWN
682DC	2	57	811633	UNKNOWN
682E4	2	51	811839	UNKNOWN
682EC	2	52	811901	UNKNOWN
682F4	3	11	8121DD	UNKNOWN
682FC	21	8	80D1E5	LOG-INFO
68304	C	20	80C62B	UNKNOWN
6830C	C	49	80CA95	UNKNOWN
68314	C	41	80C9BB	UNKNOWN
6831C	2	15	8111A1	RXM-RAWX
68324	F5	1	80842F	UNKNOWN
6832C	F5	9	80844D	UNKNOWN
68334	F5	2	808435	UNKNOWN
6833C	F5	A	808453	UNKNOWN
68344	F5	5	80843B	RTCM1005
6834C	F5	6	808441	UNKNOWN
68354	F5	7	808447	UNKNOWN
6835C	F5	4D	808459	RTCM1077
68364	F5	57	80845F	RTCM1087
6836C	0	2F	1310130	UNKNOWN
68374	32	1	5471334	UNKNOWN
6837C	4C	2	1510150	UNKNOWN
68384	52	1	1550154	UNKNOWN
6838C	56	1	9590158	UNKNOWN
68394	F1	40	80579B	UNKNOWN
683A4	F1	41	805881	UNKNOWN
683B4	F0	40	8051E3	UNKNOWN
683C4	F0	43	805229	UNKNOWN
683D4	F0	42	80526F	UNKNOWN
683E4	F0	44	8052B5	UNKNOWN
683F4	B	1	8086DB	AID-INI
68404	B	2	808F39	AID-HUI
68414	B	30	808CAB	AID-ALM
68424	B	31	808DE1	AID-EPH
68434	13	0	80D9FF	UNKNOWN
68444	13	6	80DEE3	UNKNOWN
68454	13	40	80E299	UNKNOWN
68464	13	80	80E621	UNKNOWN
68474	6	1	80937B	CFG-MSG
68484	6	2	809443	CFG-INF
68494	6	4	809505	CFG-RST
684A4	6	0	8090AD	CFG-PRT
684B4	6	1B	8094CB	CFG-USB
684BC	6D	87	6C00D9	UNKNOWN
684C4	6	58	8094D1	UNKNOWN
684D4	6	9	809531	CFG-CFG
684E4	6	22	809531	UNKNOWN
684F4	6	50	80AD99	UNKNOWN
68504	6	27	80A1DD	UNKNOWN
68514	6	13	8095D5	CFG-ANT
6851C	F1	D2	40009	UNKNOWN
68524	6	41	80A6C9	UNKNOWN
68534	6	69	80B2AB	UNKNOWN
68544	6	2C	80A937	UNKNOWN
68554	6	34	8095DB	UNKNOWN
6855C	1D	3C	1F0001	UNKNOWN
68564	6	5	8095E9	UNKNOWN
68574	6	20	80962D	UNKNOWN
68584	6	3C	80A57B	UNKNOWN
68594	6	49	80960F	UNKNOWN
6859C	43	33	C0001	UNKNOWN
685A4	6	47	80AA03	UNKNOWN
685AC	1D	1A	C0019	UNKNOWN
685B4	21	7	80D41F	UNKNOWN
685C4	21	3	80D3D3	UNKNOWN
685D4	21	8	80D2C1	LOG-INFO
685E4	21	9	80D32B	UNKNOWN
685F4	21	E	80D363	UNKNOWN
68604	21	4	80D39B	UNKNOWN
68614	6	17	80982F	CFG-NMEA
6861C	19	97	140001	UNKNOWN
68624	6	8	8099D3	CFG-RATE
6862C	B1	99	6000D	UNKNOWN
68634	6	31	8099FD	UNKNOWN
68644	6	42	809B7F	UNKNOWN
6864C	5F	9B	F40001	UNKNOWN
68654	6	43	809D09	UNKNOWN
6865C	BF	9C	200041	UNKNOWN
68664	6	24	80A295	UNKNOWN
6866C	F1	A1	240049	UNKNOWN
68674	6	23	80A46B	UNKNOWN
6867C	71	A3	280051	UNKNOWN
68684	6	6	809E1B	CFG-DAT
6868C	15	9D	340001	UNKNOWN
68694	6	11	80A14B	CFG-RXM
6869C	9	A1	20005	UNKNOWN
686A4	6	70	80A0CF	UNKNOWN
686AC	87	A0	C0019	UNKNOWN
686B4	6	5B	80A18B	UNKNOWN
686BC	6F	12	40009	UNKNOWN
686C4	6	65	80B3CD	UNKNOWN
686D4	6	67	80B0E3	UNKNOWN
686DC	CD	B0	30007	UNKNOWN
686E4	6	71	80B3D1	CFG-TMODE3
686F4	6	28	80A1C3	UNKNOWN
686FC	A1	A1	80011	UNKNOWN
68704	6	59	80AA09	UNKNOWN
68714	6	5A	80ABF9	UNKNOWN
68724	6	3E	809F0B	UNKNOWN
68734	6	44	8096F1	UNKNOWN
6873C	C3	96	80011	UNKNOWN
68744	6	15	809597	UNKNOWN
68754	6	55	809EA3	UNKNOWN
6875C	45	9E	240049	UNKNOWN
68764	6	1E	80AE39	UNKNOWN
6876C	E7	AD	140029	UNKNOWN
68774	1	10	810A9B	UNKNOWN
68784	6	66	80AEC5	UNKNOWN
6878C	8F	AE	7C0001	UNKNOWN
68794	6	84	80B0F3	UNKNOWN
687A4	6	85	80B155	UNKNOWN
687B4	2	60	8117F7	UNKNOWN
687BC	F3	17	240001	UNKNOWN
687C4	D	6	811DFF	UNKNOWN
687D4	A	11	80E83D	UNKNOWN
687E4	A	FF	80ED0D	UNKNOWN
687F4	A	24	80F449	UNKNOWN
68804	A	4	80EF8F	MON-VER
68814	A	27	80F4B5	UNKNOWN
68824	A	28	80F705	UNKNOWN
68834	9	21	81253B	UPD-DOWNL-SEC
68844	9	20	812609	UPD-UPLOAD-SEC
68854	9	22	812643	UPD-EXEC-SEC
68864	9	E	8128AD	UPD-RBOOT
68874	9	4	8126C3	UPD-MEMCPY
68884	9	D	81280F	UPD-csum
68894	9	6	81273F	UPD-identify
688A4	9	7	81242D	UPD-SAFE
688B4	9	8	812743	UPD-FLDET
688C4	9	9	812779	UNKNOWN
688D4	9	A	8127B9	UNKNOWN
688E4	9	B	8127F1	UPD-erase
688F4	9	16	8127FB	UNKNOWN
68904	9	C	812805	UPD-write
68914	9	F	81274D	UNKNOWN
68924	9	12	81299D	UNKNOWN
68934	9	18	812B53	UNKNOWN
68944	9	13	812D1B	UNKNOWN
68954	9	14	812D2D	UPD-SOS
68964	6	39	80A56F	UNKNOWN
6896C	65	69	80011	UNKNOWN
68974	8	5	812359	UNKNOWN
