0	87	0	38584255	0	UNKNOWN
14	87	0	87A9F5	0	UNKNOWN
28	FF	FF	FFFFFFFF	0	UNKNOWN
3C	FF	FF	FFFFFFFF	0	UNKNOWN
50	FF	FF	FFFFFFFF	0	UNKNOWN
64	FF	FF	FFFFFFFF	0	UNKNOWN
78	FF	FF	FFFFFFFF	0	UNKNOWN
8C	FF	FF	FFFFFFFF	0	UNKNOWN
A0	FF	FF	FFFFFFFF	0	UNKNOWN
B4	FF	FF	FFFFFFFF	0	UNKNOWN
C8	FF	FF	FFFFFFFF	0	UNKNOWN
DC	FF	FF	FFFFFFFF	0	UNKNOWN
F0	FF	FF	FFFFFFFF	0	UNKNOWN
104	FF	FF	FFFFFFFF	0	UNKNOWN
118	FF	FF	FFFFFFFF	0	UNKNOWN
12C	FF	FF	FFFFFFFF	0	UNKNOWN
140	FF	FF	FFFFFFFF	0	UNKNOWN
154	FF	FF	FFFFFFFF	0	UNKNOWN
168	FF	FF	FFFFFFFF	0	UNKNOWN
17C	FF	FF	FFFFFFFF	0	UNKNOWN
190	FF	FF	FFFFFFFF	0	UNKNOWN
1A4	FF	FF	FFFFFFFF	0	UNKNOWN
1B8	FF	FF	FFFFFFFF	0	UNKNOWN
1CC	FF	FF	FFFFFFFF	0	UNKNOWN
1E0	FF	FF	FFFFFFFF	0	UNKNOWN
1F4	FF	FF	FFFFFFFF	0	UNKNOWN
208	FF	FF	FFFFFFFF	0	UNKNOWN
21C	FF	FF	FFFFFFFF	0	UNKNOWN
230	FF	FF	FFFFFFFF	0	UNKNOWN
244	FF	FF	FFFFFFFF	0	UNKNOWN
258	FF	FF	FFFFFFFF	0	UNKNOWN
26C	FF	FF	FFFFFFFF	0	UNKNOWN
280	FF	FF	FFFFFFFF	0	UNKNOWN
294	FF	FF	FFFFFFFF	0	UNKNOWN
2A8	FF	FF	FFFFFFFF	0	UNKNOWN
2BC	FF	FF	FFFFFFFF	0	UNKNOWN
2D0	FF	FF	FFFFFFFF	0	UNKNOWN
2E4	FF	FF	FFFFFFFF	0	UNKNOWN
2F8	FF	FF	FFFFFFFF	0	UNKNOWN
30C	FF	FF	FFFFFFFF	0	UNKNOWN
320	FF	FF	FFFFFFFF	0	UNKNOWN
334	FF	FF	FFFFFFFF	0	UNKNOWN
348	FF	FF	FFFFFFFF	0	UNKNOWN
35C	FF	FF	FFFFFFFF	0	UNKNOWN
370	FF	FF	FFFFFFFF	0	UNKNOWN
384	FF	FF	FFFFFFFF	0	UNKNOWN
398	FF	FF	FFFFFFFF	0	UNKNOWN
3AC	FF	FF	FFFFFFFF	0	UNKNOWN
3C0	FF	FF	FFFFFFFF	0	UNKNOWN
3D4	FF	FF	FFFFFFFF	0	UNKNOWN
3E8	FF	FF	FFFFFFFF	0	UNKNOWN
3FC	FF	FF	FFFFFFFF	0	UNKNOWN
410	FF	FF	FFFFFFFF	0	UNKNOWN
424	FF	FF	FFFFFFFF	0	UNKNOWN
438	FF	FF	FFFFFFFF	0	UNKNOWN
44C	FF	FF	FFFFFFFF	0	UNKNOWN
460	FF	FF	FFFFFFFF	0	UNKNOWN
474	FF	FF	FFFFFFFF	0	UNKNOWN
488	FF	FF	FFFFFFFF	0	UNKNOWN
49C	FF	FF	FFFFFFFF	0	UNKNOWN
4B0	FF	FF	FFFFFFFF	0	UNKNOWN
4C4	FF	FF	FFFFFFFF	0	UNKNOWN
4D8	FF	FF	FFFFFFFF	0	UNKNOWN
4EC	FF	FF	FFFFFFFF	0	UNKNOWN
500	FF	FF	FFFFFFFF	0	UNKNOWN
514	FF	FF	FFFFFFFF	0	UNKNOWN
528	FF	FF	FFFFFFFF	0	UNKNOWN
53C	FF	FF	FFFFFFFF	0	UNKNOWN
550	FF	FF	FFFFFFFF	0	UNKNOWN
564	FF	FF	FFFFFFFF	0	UNKNOWN
578	FF	FF	FFFFFFFF	0	UNKNOWN
58C	FF	FF	FFFFFFFF	0	UNKNOWN
5A0	FF	FF	FFFFFFFF	0	UNKNOWN
5B4	FF	FF	FFFFFFFF	0	UNKNOWN
5C8	FF	FF	FFFFFFFF	0	UNKNOWN
5DC	FF	FF	FFFFFFFF	0	UNKNOWN
5F0	FF	FF	FFFFFFFF	0	UNKNOWN
604	FF	FF	FFFFFFFF	0	UNKNOWN
618	FF	FF	FFFFFFFF	0	UNKNOWN
62C	FF	FF	FFFFFFFF	0	UNKNOWN
640	FF	FF	FFFFFFFF	0	UNKNOWN
654	FF	FF	FFFFFFFF	0	UNKNOWN
668	FF	FF	FFFFFFFF	0	UNKNOWN
67C	FF	FF	FFFFFFFF	0	UNKNOWN
690	FF	FF	FFFFFFFF	0	UNKNOWN
6A4	FF	FF	FFFFFFFF	0	UNKNOWN
6B8	FF	FF	FFFFFFFF	0	UNKNOWN
6CC	FF	FF	FFFFFFFF	0	UNKNOWN
6E0	FF	FF	FFFFFFFF	0	UNKNOWN
6F4	FF	FF	FFFFFFFF	0	UNKNOWN
708	FF	FF	FFFFFFFF	0	UNKNOWN
71C	FF	FF	FFFFFFFF	0	UNKNOWN
730	FF	FF	FFFFFFFF	0	UNKNOWN
744	FF	FF	FFFFFFFF	0	UNKNOWN
758	FF	FF	FFFFFFFF	0	UNKNOWN
76C	FF	FF	FFFFFFFF	0	UNKNOWN
780	FF	FF	FFFFFFFF	0	UNKNOWN
794	FF	FF	FFFFFFFF	0	UNKNOWN
7A8	FF	FF	FFFFFFFF	0	UNKNOWN
7BC	FF	FF	FFFFFFFF	0	UNKNOWN
7D0	FF	FF	FFFFFFFF	0	UNKNOWN
7E4	FF	FF	FFFFFFFF	0	UNKNOWN
7F8	FF	FF	FFFFFFFF	0	UNKNOWN
80C	FF	FF	FFFFFFFF	0	UNKNOWN
820	FF	FF	FFFFFFFF	0	UNKNOWN
834	FF	FF	FFFFFFFF	0	UNKNOWN
848	FF	FF	FFFFFFFF	0	UNKNOWN
85C	FF	FF	FFFFFFFF	0	UNKNOWN
870	FF	FF	FFFFFFFF	0	UNKNOWN
884	FF	FF	FFFFFFFF	0	UNKNOWN
898	FF	FF	FFFFFFFF	0	UNKNOWN
8AC	FF	FF	FFFFFFFF	0	UNKNOWN
8C0	FF	FF	FFFFFFFF	0	UNKNOWN
8D4	FF	FF	FFFFFFFF	0	UNKNOWN
8E8	FF	FF	FFFFFFFF	0	UNKNOWN
8FC	FF	FF	FFFFFFFF	0	UNKNOWN
910	FF	FF	FFFFFFFF	0	UNKNOWN
924	FF	FF	FFFFFFFF	0	UNKNOWN
938	FF	FF	FFFFFFFF	0	UNKNOWN
94C	FF	FF	FFFFFFFF	0	UNKNOWN
960	FF	FF	FFFFFFFF	0	UNKNOWN
974	FF	FF	FFFFFFFF	0	UNKNOWN
988	FF	FF	FFFFFFFF	0	UNKNOWN
99C	FF	FF	FFFFFFFF	0	UNKNOWN
9B0	FF	FF	FFFFFFFF	0	UNKNOWN
9C4	FF	FF	FFFFFFFF	0	UNKNOWN
9D8	FF	FF	FFFFFFFF	0	UNKNOWN
9EC	FF	FF	FFFFFFFF	0	UNKNOWN
A00	FF	FF	FFFFFFFF	0	UNKNOWN
A14	FF	FF	FFFFFFFF	0	UNKNOWN
A28	FF	FF	FFFFFFFF	0	UNKNOWN
A3C	FF	FF	FFFFFFFF	0	UNKNOWN
A50	FF	FF	FFFFFFFF	0	UNKNOWN
A64	FF	FF	FFFFFFFF	0	UNKNOWN
A78	FF	FF	FFFFFFFF	0	UNKNOWN
A8C	FF	FF	FFFFFFFF	0	UNKNOWN
AA0	FF	FF	FFFFFFFF	0	UNKNOWN
AB4	FF	FF	FFFFFFFF	0	UNKNOWN
AC8	FF	FF	FFFFFFFF	0	UNKNOWN
ADC	FF	FF	FFFFFFFF	0	UNKNOWN
AF0	FF	FF	FFFFFFFF	0	UNKNOWN
B04	FF	FF	FFFFFFFF	0	UNKNOWN
B18	FF	FF	FFFFFFFF	0	UNKNOWN
B2C	FF	FF	FFFFFFFF	0	UNKNOWN
B40	FF	FF	FFFFFFFF	0	UNKNOWN
B54	FF	FF	FFFFFFFF	0	UNKNOWN
B68	FF	FF	FFFFFFFF	0	UNKNOWN
B7C	FF	FF	FFFFFFFF	0	UNKNOWN
B90	FF	FF	FFFFFFFF	0	UNKNOWN
BA4	FF	FF	FFFFFFFF	0	UNKNOWN
BB8	FF	FF	FFFFFFFF	0	UNKNOWN
BCC	FF	FF	FFFFFFFF	0	UNKNOWN
BE0	FF	FF	FFFFFFFF	0	UNKNOWN
BF4	FF	FF	FFFFFFFF	0	UNKNOWN
C08	FF	FF	FFFFFFFF	0	UNKNOWN
C1C	FF	FF	FFFFFFFF	0	UNKNOWN
C30	FF	FF	FFFFFFFF	0	UNKNOWN
C44	FF	FF	FFFFFFFF	0	UNKNOWN
C58	FF	FF	FFFFFFFF	0	UNKNOWN
C6C	FF	FF	FFFFFFFF	0	UNKNOWN
C80	FF	FF	FFFFFFFF	0	UNKNOWN
C94	FF	FF	FFFFFFFF	0	UNKNOWN
CA8	FF	FF	FFFFFFFF	0	UNKNOWN
CBC	FF	FF	FFFFFFFF	0	UNKNOWN
CD0	FF	FF	FFFFFFFF	0	UNKNOWN
CE4	FF	FF	FFFFFFFF	0	UNKNOWN
CF8	FF	FF	FFFFFFFF	0	UNKNOWN
D0C	FF	FF	FFFFFFFF	0	UNKNOWN
D20	FF	FF	FFFFFFFF	0	UNKNOWN
D34	FF	FF	FFFFFFFF	0	UNKNOWN
D48	FF	FF	FFFFFFFF	0	UNKNOWN
D5C	FF	FF	FFFFFFFF	0	UNKNOWN
D70	FF	FF	FFFFFFFF	0	UNKNOWN
D84	FF	FF	FFFFFFFF	0	UNKNOWN
D98	FF	FF	FFFFFFFF	0	UNKNOWN
DAC	FF	FF	FFFFFFFF	0	UNKNOWN
DC0	FF	FF	FFFFFFFF	0	UNKNOWN
DD4	FF	FF	FFFFFFFF	0	UNKNOWN
DE8	FF	FF	FFFFFFFF	0	UNKNOWN
DFC	FF	FF	FFFFFFFF	0	UNKNOWN
E10	FF	FF	FFFFFFFF	0	UNKNOWN
E24	FF	FF	FFFFFFFF	0	UNKNOWN
E38	FF	FF	FFFFFFFF	0	UNKNOWN
E4C	FF	FF	FFFFFFFF	0	UNKNOWN
E60	FF	FF	FFFFFFFF	0	UNKNOWN
E74	FF	FF	FFFFFFFF	0	UNKNOWN
E88	FF	FF	FFFFFFFF	0	UNKNOWN
E9C	FF	FF	FFFFFFFF	0	UNKNOWN
EB0	FF	FF	FFFFFFFF	0	UNKNOWN
EC4	FF	FF	FFFFFFFF	0	UNKNOWN
ED8	FF	FF	FFFFFFFF	0	UNKNOWN
EEC	FF	FF	FFFFFFFF	0	UNKNOWN
F00	FF	FF	FFFFFFFF	0	UNKNOWN
F14	FF	FF	FFFFFFFF	0	UNKNOWN
F28	FF	FF	FFFFFFFF	0	UNKNOWN
F3C	FF	FF	FFFFFFFF	0	UNKNOWN
F50	FF	FF	FFFFFFFF	0	UNKNOWN
F64	FF	FF	FFFFFFFF	0	UNKNOWN
F78	FF	FF	FFFFFFFF	0	UNKNOWN
F8C	FF	FF	FFFFFFFF	0	UNKNOWN
Message in FW
739E8	A	11	811A3B	UNKNOWN
739F4	A	6	811BF7	MON-MSGPP
73A00	A	8	811C27	MON-TXBUF
73A0C	A	7	811C0F	MON-RXBUF
73A18	A	2	811C3F	MON-IO
73A24	A	1E	811CCD	UNKNOWN
73A30	A	5	811D2F	MON-EXCEPT
73A3C	A	9	811E27	MON-HW
73A48	A	B	811F53	MON-HW2
73A54	A	D	811FB5	MON-LLC
73A60	A	A	811CFF	MON-USB
73A6C	A	26	811CA7	UNKNOWN
73A78	A	1F	811CE5	UNKNOWN
73A84	A	1D	811C59	MON-SPEC
73A90	A	2B	8121A3	UNKNOWN
73A9C	A	21	81261B	UNKNOWN
73AA8	A	22	811D17	UNKNOWN
73AB4	A	23	81263B	UNKNOWN
73AC0	A	25	8126DB	UNKNOWN
73ACC	3	F	814FB5	TRK-SFRBX
73AD8	3	9	814FB9	UNKNOWN
73AE4	3	10	815269	TRK-MEAS
73AF0	3	11	8151FD	UNKNOWN
73AFC	3	B	815111	UNKNOWN
73B08	1	6	812C63	NAV-SOL
73B14	1	7	812D17	NAV-PVT
73B20	1	30	813413	NAV-SVINFO
73B2C	1	34	813EAD	NAV-ORB
73B38	1	35	813943	NAV-SAT
73B44	1	3	812BC9	NAV-STATUS
73B50	1	1	812A57	NAV-POSECEF
73B5C	1	2	812A9D	NAV-POSLLH
73B68	1	4	812B3F	NAV-DOP
73B74	1	11	812F7B	NAV-VELECEF
73B80	1	12	812FBF	NAV-VELNED
73B8C	1	20	813049	NAV-TIMEGPS
73B98	1	21	8130B5	NAV-TIMEUTC
73BA4	1	22	813163	NAV-CLOCK
73BB0	1	32	813657	NAV-SBAS
73BBC	1	31	813809	NAV-DGPS
73BC8	1	60	8138CD	NAV-AOPSTATUS
73BD4	1	9	813FE7	NAV-ODO
73BE0	1	36	81403F	UNKNOWN
73BEC	9	13	815A4F	UNKNOWN
73BF8	21	8	80FBC3	LOG-INFO
73C04	F0	A	8088A9	NMEA
73C10	F0	4	8096F5	NMEA
73C1C	F0	5	8097FD	NMEA
73C28	F0	D	808DA7	NMEA
73C34	F0	0	808BDB	NMEA
73C40	F0	2	80914D	NMEA
73C4C	F0	3	8093C1	NMEA
73C58	F0	1	8090D7	NMEA
73C64	F0	6	808F69	NMEA
73C70	F0	7	809279	NMEA
73C7C	F0	8	80996F	NMEA
73C88	F0	9	808A0D	NMEA
73C94	F0	E	8098E5	NMEA
73CA0	F0	F	809A09	NMEA
73CAC	F1	0	809C0D	pubx00
73CB8	F1	3	809E03	pubx03
73CC4	F1	4	809F4D	pubx04
73CD0	B	1	80B065	AID-INI
73CDC	B	31	80B449	AID-EPH
73CE8	B	30	80B301	AID-ALM
73CF4	B	33	80B735	UNKNOWN
73D00	C	10	80EDF9	UNKNOWN
73D0C	C	31	80F025	UNKNOWN
73D18	C	14	80EE37	UNKNOWN
73D24	C	18	80EF11	UNKNOWN
73D30	C	19	80EF2B	UNKNOWN
73D3C	C	20	80F349	UNKNOWN
73D48	C	1A	80F367	UNKNOWN
73D54	C	33	80F545	UNKNOWN
73D60	C	35	80FB0D	UNKNOWN
73D6C	C	34	80F69F	UNKNOWN
73D78	2	14	8142E7	RXM-MEASX
73D84	2	20	814255	RXM-SVSI
73D90	2	23	814785	UNKNOWN
73D9C	2	57	814807	UNKNOWN
73DA8	2	51	8149D3	UNKNOWN
73DB4	2	52	814A8D	UNKNOWN
73DC0	D	1	814D47	TIM-TP
73DCC	D	3	814C71	TIM-TM2
73DD8	D	6	814DFF	UNKNOWN
73DE4	D	10	814E45	UNKNOWN
73DF0	2	53	814B8B	UNKNOWN
73DFC	F1	40	80A057	UNKNOWN
73E08	15	A1	140F0	UNKNOWN
73E14	F0	43	809ADF	UNKNOWN
73E20	25	9B	144F0	UNKNOWN
73E2C	B	1	80AD51	AID-INI
73E38	D5	B5	2300B	UNKNOWN
73E44	B	31	80B47B	AID-EPH
73E50	1D	4	20613	UNKNOWN
73E5C	13	5	810991	UNKNOWN
73E68	17	D	24013	UNKNOWN
73E74	13	20	8112C1	UNKNOWN
73E80	61	15	22113	UNKNOWN
73E8C	B	33	80B7F3	UNKNOWN
73E98	21	BB	10206	UNKNOWN
73EA4	6	4	80BC99	CFG-RST
73EB0	CF	BC	11806	UNKNOWN
73EBC	6	0	80B915	CFG-PRT
73EC8	17	BC	15806	UNKNOWN
73ED4	6	9	80BEA5	CFG-CFG
73EE0	A5	BE	22706	UNKNOWN
73EEC	6	13	80BF67	CFG-ANT
73EF8	A3	BF	20506	UNKNOWN
73F04	6	20	80C041	UNKNOWN
73F10	65	D7	14106	UNKNOWN
73F1C	6	49	80C007	UNKNOWN
73F28	9B	E0	12C06	UNKNOWN
73F34	6	47	80DBCD	UNKNOWN
73F40	25	FE	10321	UNKNOWN
73F4C	21	8	80FC9D	LOG-INFO
73F58	11	FD	10E21	UNKNOWN
73F64	21	4	80FD91	UNKNOWN
73F70	67	BE	21606	UNKNOWN
73F7C	6	17	80C45F	CFG-NMEA
73F88	D3	C7	23106	UNKNOWN
73F94	6	42	80C9CD	UNKNOWN
73FA0	9D	CB	22406	UNKNOWN
73FAC	6	23	80D431	UNKNOWN
73FB8	2B	CC	21106	UNKNOWN
73FC4	6	5B	80D0EF	UNKNOWN
73FD0	5	D2	404806	UNKNOWN
73FDC	2	41	814B3D	UNKNOWN
73FE8	41	D1	25906	UNKNOWN
73FF4	6	5A	80DEF3	UNKNOWN
74000	65	CE	24006	UNKNOWN
7400C	6	44	80C295	UNKNOWN
74018	27	C3	21506	UNKNOWN
74024	6	2B	80DC0D	UNKNOWN
74030	61	CD	21E06	UNKNOWN
7403C	1	10	814023	UNKNOWN
74048	1	F5	2060D	UNKNOWN
74054	A	11	811A1D	UNKNOWN
74060	1	1E	1240A	UNKNOWN
7406C	A	4	811FF1	MON-VER
74078	FD	26	1290A	UNKNOWN
74084	A	28	812933	UNKNOWN
74090	41	54	10209	UNKNOWN
7409C	9	3	815517	UPD-EXEC
740A8	85	55	10609	UNKNOWN
740B4	9	7	815331	UPD-SAFE
740C0	15	56	10909	UNKNOWN
740CC	9	A	81566B	UNKNOWN
740D8	A1	56	11609	UNKNOWN
740E4	9	C	8156B5	UPD-write
740F0	BF	56	10E09	UNKNOWN
740FC	9	F	81561F	UNKNOWN
74108	61	58	11309	UNKNOWN
74114	9	14	815B47	UPD-SOS
74120	17	D7	201F4	UNKNOWN
7412C	F4	2	80A7FB	UNKNOWN
74138	75	A9	209F4	UNKNOWN
74144	46	15	0	UNKNOWN
74150	75	2D	4120786F	UNKNOWN
7415C	77	77	6C622D75	UNKNOWN
74168	6F	6D	0	UNKNOWN
74174	6F	78	2053534E	UNKNOWN
74180	69	76	0	UNKNOWN
741B0	1	2	11B2101	NAV-POSLLH
741BC	1	12	11B0601	NAV-VELNED
741C8	1	30	11B1010	NAV-SVINFO
741D4	E7	EE	84EF2D	UNKNOWN
741E0	7B	EF	84EF95	UNKNOWN
741EC	2	1	0	UNKNOWN
74204	BB	52	8752C6	UNKNOWN
74210	C0	52	8752B6	UNKNOWN
7421C	2B	3D	0	UNKNOWN
74228	0	1	0	UNKNOWN
7424C	E3	52	0	UNKNOWN
74258	E8	3	0	UNKNOWN
74264	12	0	8752DF	UNKNOWN
74270	E5	1	0	UNKNOWN
7427C	70	3	10	UNKNOWN
742A0	DB	52	0	UNKNOWN
742B8	10	0	8752F1	UNKNOWN
742C4	3	8	0	UNKNOWN
742D0	E8	3	10	UNKNOWN
742F4	E6	52	20002CE0	UNKNOWN
7430C	12	0	8752CF	UNKNOWN
