0	86	0	38584255	0	UNKNOWN
14	86	0	875055	0	UNKNOWN
28	7B	EE	FFFFFFFF	0	UNKNOWN
3C	FF	FF	FFFFFFFF	0	UNKNOWN
50	FF	FF	FFFFFFFF	0	UNKNOWN
64	FF	FF	FFFFFFFF	0	UNKNOWN
78	FF	FF	FFFFFFFF	0	UNKNOWN
8C	FF	FF	FFFFFFFF	0	UNKNOWN
A0	FF	FF	FFFFFFFF	0	UNKNOWN
B4	FF	FF	FFFFFFFF	0	UNKNOWN
C8	FF	FF	FFFFFFFF	0	UNKNOWN
DC	FF	FF	FFFFFFFF	0	UNKNOWN
F0	FF	FF	FFFFFFFF	0	UNKNOWN
104	FF	FF	FFFFFFFF	0	UNKNOWN
118	FF	FF	FFFFFFFF	0	UNKNOWN
12C	FF	FF	FFFFFFFF	0	UNKNOWN
140	FF	FF	FFFFFFFF	0	UNKNOWN
154	FF	FF	FFFFFFFF	0	UNKNOWN
168	FF	FF	FFFFFFFF	0	UNKNOWN
17C	FF	FF	FFFFFFFF	0	UNKNOWN
190	FF	FF	FFFFFFFF	0	UNKNOWN
1A4	FF	FF	FFFFFFFF	0	UNKNOWN
1B8	FF	FF	FFFFFFFF	0	UNKNOWN
1CC	FF	FF	FFFFFFFF	0	UNKNOWN
1E0	FF	FF	FFFFFFFF	0	UNKNOWN
1F4	FF	FF	FFFFFFFF	0	UNKNOWN
208	FF	FF	FFFFFFFF	0	UNKNOWN
21C	FF	FF	FFFFFFFF	0	UNKNOWN
230	FF	FF	FFFFFFFF	0	UNKNOWN
244	FF	FF	FFFFFFFF	0	UNKNOWN
258	FF	FF	FFFFFFFF	0	UNKNOWN
26C	FF	FF	FFFFFFFF	0	UNKNOWN
280	FF	FF	FFFFFFFF	0	UNKNOWN
294	FF	FF	FFFFFFFF	0	UNKNOWN
2A8	FF	FF	FFFFFFFF	0	UNKNOWN
2BC	FF	FF	FFFFFFFF	0	UNKNOWN
2D0	FF	FF	FFFFFFFF	0	UNKNOWN
2E4	FF	FF	FFFFFFFF	0	UNKNOWN
2F8	FF	FF	FFFFFFFF	0	UNKNOWN
30C	FF	FF	FFFFFFFF	0	UNKNOWN
320	FF	FF	FFFFFFFF	0	UNKNOWN
334	FF	FF	FFFFFFFF	0	UNKNOWN
348	FF	FF	FFFFFFFF	0	UNKNOWN
35C	FF	FF	FFFFFFFF	0	UNKNOWN
370	FF	FF	FFFFFFFF	0	UNKNOWN
384	FF	FF	FFFFFFFF	0	UNKNOWN
398	FF	FF	FFFFFFFF	0	UNKNOWN
3AC	FF	FF	FFFFFFFF	0	UNKNOWN
3C0	FF	FF	FFFFFFFF	0	UNKNOWN
3D4	FF	FF	FFFFFFFF	0	UNKNOWN
3E8	FF	FF	FFFFFFFF	0	UNKNOWN
3FC	FF	FF	FFFFFFFF	0	UNKNOWN
410	FF	FF	FFFFFFFF	0	UNKNOWN
424	FF	FF	FFFFFFFF	0	UNKNOWN
438	FF	FF	FFFFFFFF	0	UNKNOWN
44C	FF	FF	FFFFFFFF	0	UNKNOWN
460	FF	FF	FFFFFFFF	0	UNKNOWN
474	FF	FF	FFFFFFFF	0	UNKNOWN
488	FF	FF	FFFFFFFF	0	UNKNOWN
49C	FF	FF	FFFFFFFF	0	UNKNOWN
4B0	FF	FF	FFFFFFFF	0	UNKNOWN
4C4	FF	FF	FFFFFFFF	0	UNKNOWN
4D8	FF	FF	FFFFFFFF	0	UNKNOWN
4EC	FF	FF	FFFFFFFF	0	UNKNOWN
500	FF	FF	FFFFFFFF	0	UNKNOWN
514	FF	FF	FFFFFFFF	0	UNKNOWN
528	FF	FF	FFFFFFFF	0	UNKNOWN
53C	FF	FF	FFFFFFFF	0	UNKNOWN
550	FF	FF	FFFFFFFF	0	UNKNOWN
564	FF	FF	FFFFFFFF	0	UNKNOWN
578	FF	FF	FFFFFFFF	0	UNKNOWN
58C	FF	FF	FFFFFFFF	0	UNKNOWN
5A0	FF	FF	FFFFFFFF	0	UNKNOWN
5B4	FF	FF	FFFFFFFF	0	UNKNOWN
5C8	FF	FF	FFFFFFFF	0	UNKNOWN
5DC	FF	FF	FFFFFFFF	0	UNKNOWN
5F0	FF	FF	FFFFFFFF	0	UNKNOWN
604	FF	FF	FFFFFFFF	0	UNKNOWN
618	FF	FF	FFFFFFFF	0	UNKNOWN
62C	FF	FF	FFFFFFFF	0	UNKNOWN
640	FF	FF	FFFFFFFF	0	UNKNOWN
654	FF	FF	FFFFFFFF	0	UNKNOWN
668	FF	FF	FFFFFFFF	0	UNKNOWN
67C	FF	FF	FFFFFFFF	0	UNKNOWN
690	FF	FF	FFFFFFFF	0	UNKNOWN
6A4	FF	FF	FFFFFFFF	0	UNKNOWN
6B8	FF	FF	FFFFFFFF	0	UNKNOWN
6CC	FF	FF	FFFFFFFF	0	UNKNOWN
6E0	FF	FF	FFFFFFFF	0	UNKNOWN
6F4	FF	FF	FFFFFFFF	0	UNKNOWN
708	FF	FF	FFFFFFFF	0	UNKNOWN
71C	FF	FF	FFFFFFFF	0	UNKNOWN
730	FF	FF	FFFFFFFF	0	UNKNOWN
744	FF	FF	FFFFFFFF	0	UNKNOWN
758	FF	FF	FFFFFFFF	0	UNKNOWN
76C	FF	FF	FFFFFFFF	0	UNKNOWN
780	FF	FF	FFFFFFFF	0	UNKNOWN
794	FF	FF	FFFFFFFF	0	UNKNOWN
7A8	FF	FF	FFFFFFFF	0	UNKNOWN
7BC	FF	FF	FFFFFFFF	0	UNKNOWN
7D0	FF	FF	FFFFFFFF	0	UNKNOWN
7E4	FF	FF	FFFFFFFF	0	UNKNOWN
7F8	FF	FF	FFFFFFFF	0	UNKNOWN
80C	FF	FF	FFFFFFFF	0	UNKNOWN
820	FF	FF	FFFFFFFF	0	UNKNOWN
834	FF	FF	FFFFFFFF	0	UNKNOWN
848	FF	FF	FFFFFFFF	0	UNKNOWN
85C	FF	FF	FFFFFFFF	0	UNKNOWN
870	FF	FF	FFFFFFFF	0	UNKNOWN
884	FF	FF	FFFFFFFF	0	UNKNOWN
898	FF	FF	FFFFFFFF	0	UNKNOWN
8AC	FF	FF	FFFFFFFF	0	UNKNOWN
8C0	FF	FF	FFFFFFFF	0	UNKNOWN
8D4	FF	FF	FFFFFFFF	0	UNKNOWN
8E8	FF	FF	FFFFFFFF	0	UNKNOWN
8FC	FF	FF	FFFFFFFF	0	UNKNOWN
910	FF	FF	FFFFFFFF	0	UNKNOWN
924	FF	FF	FFFFFFFF	0	UNKNOWN
938	FF	FF	FFFFFFFF	0	UNKNOWN
94C	FF	FF	FFFFFFFF	0	UNKNOWN
960	FF	FF	FFFFFFFF	0	UNKNOWN
974	FF	FF	FFFFFFFF	0	UNKNOWN
988	FF	FF	FFFFFFFF	0	UNKNOWN
99C	FF	FF	FFFFFFFF	0	UNKNOWN
9B0	FF	FF	FFFFFFFF	0	UNKNOWN
9C4	FF	FF	FFFFFFFF	0	UNKNOWN
9D8	FF	FF	FFFFFFFF	0	UNKNOWN
9EC	FF	FF	FFFFFFFF	0	UNKNOWN
A00	FF	FF	FFFFFFFF	0	UNKNOWN
A14	FF	FF	FFFFFFFF	0	UNKNOWN
A28	FF	FF	FFFFFFFF	0	UNKNOWN
A3C	FF	FF	FFFFFFFF	0	UNKNOWN
A50	FF	FF	FFFFFFFF	0	UNKNOWN
A64	FF	FF	FFFFFFFF	0	UNKNOWN
A78	FF	FF	FFFFFFFF	0	UNKNOWN
A8C	FF	FF	FFFFFFFF	0	UNKNOWN
AA0	FF	FF	FFFFFFFF	0	UNKNOWN
AB4	FF	FF	FFFFFFFF	0	UNKNOWN
AC8	FF	FF	FFFFFFFF	0	UNKNOWN
ADC	FF	FF	FFFFFFFF	0	UNKNOWN
AF0	FF	FF	FFFFFFFF	0	UNKNOWN
B04	FF	FF	FFFFFFFF	0	UNKNOWN
B18	FF	FF	FFFFFFFF	0	UNKNOWN
B2C	FF	FF	FFFFFFFF	0	UNKNOWN
B40	FF	FF	FFFFFFFF	0	UNKNOWN
B54	FF	FF	FFFFFFFF	0	UNKNOWN
B68	FF	FF	FFFFFFFF	0	UNKNOWN
B7C	FF	FF	FFFFFFFF	0	UNKNOWN
B90	FF	FF	FFFFFFFF	0	UNKNOWN
BA4	FF	FF	FFFFFFFF	0	UNKNOWN
BB8	FF	FF	FFFFFFFF	0	UNKNOWN
BCC	FF	FF	FFFFFFFF	0	UNKNOWN
BE0	FF	FF	FFFFFFFF	0	UNKNOWN
BF4	FF	FF	FFFFFFFF	0	UNKNOWN
C08	FF	FF	FFFFFFFF	0	UNKNOWN
C1C	FF	FF	FFFFFFFF	0	UNKNOWN
C30	FF	FF	FFFFFFFF	0	UNKNOWN
C44	FF	FF	FFFFFFFF	0	UNKNOWN
C58	FF	FF	FFFFFFFF	0	UNKNOWN
C6C	FF	FF	FFFFFFFF	0	UNKNOWN
C80	FF	FF	FFFFFFFF	0	UNKNOWN
C94	FF	FF	FFFFFFFF	0	UNKNOWN
CA8	FF	FF	FFFFFFFF	0	UNKNOWN
CBC	FF	FF	FFFFFFFF	0	UNKNOWN
CD0	FF	FF	FFFFFFFF	0	UNKNOWN
CE4	FF	FF	FFFFFFFF	0	UNKNOWN
CF8	FF	FF	FFFFFFFF	0	UNKNOWN
D0C	FF	FF	FFFFFFFF	0	UNKNOWN
D20	FF	FF	FFFFFFFF	0	UNKNOWN
D34	FF	FF	FFFFFFFF	0	UNKNOWN
D48	FF	FF	FFFFFFFF	0	UNKNOWN
D5C	FF	FF	FFFFFFFF	0	UNKNOWN
D70	FF	FF	FFFFFFFF	0	UNKNOWN
D84	FF	FF	FFFFFFFF	0	UNKNOWN
D98	FF	FF	FFFFFFFF	0	UNKNOWN
DAC	FF	FF	FFFFFFFF	0	UNKNOWN
DC0	FF	FF	FFFFFFFF	0	UNKNOWN
DD4	FF	FF	FFFFFFFF	0	UNKNOWN
DE8	FF	FF	FFFFFFFF	0	UNKNOWN
DFC	FF	FF	FFFFFFFF	0	UNKNOWN
E10	FF	FF	FFFFFFFF	0	UNKNOWN
E24	FF	FF	FFFFFFFF	0	UNKNOWN
E38	FF	FF	FFFFFFFF	0	UNKNOWN
E4C	FF	FF	FFFFFFFF	0	UNKNOWN
E60	FF	FF	FFFFFFFF	0	UNKNOWN
E74	FF	FF	FFFFFFFF	0	UNKNOWN
E88	FF	FF	FFFFFFFF	0	UNKNOWN
E9C	FF	FF	FFFFFFFF	0	UNKNOWN
EB0	FF	FF	FFFFFFFF	0	UNKNOWN
EC4	FF	FF	FFFFFFFF	0	UNKNOWN
ED8	FF	FF	FFFFFFFF	0	UNKNOWN
EEC	FF	FF	FFFFFFFF	0	UNKNOWN
F00	FF	FF	FFFFFFFF	0	UNKNOWN
F14	FF	FF	FFFFFFFF	0	UNKNOWN
F28	FF	FF	FFFFFFFF	0	UNKNOWN
F3C	FF	FF	FFFFFFFF	0	UNKNOWN
F50	FF	FF	FFFFFFFF	0	UNKNOWN
F64	FF	FF	FFFFFFFF	0	UNKNOWN
F78	FF	FF	FFFFFFFF	0	UNKNOWN
F8C	FF	FF	FFFFFFFF	0	UNKNOWN
Message in FW
6DF34	FF	8A	803B3F	UNKNOWN
6DF3C	1	6	810695	NAV-SOL
6DF44	1	7	810753	NAV-PVT
6DF4C	1	30	810FE5	NAV-SVINFO
6DF54	1	34	81169B	NAV-ORB
6DF5C	1	35	81118B	NAV-SAT
6DF64	1	3	81061F	NAV-STATUS
6DF6C	1	1	8104A3	NAV-POSECEF
6DF74	1	2	8104EB	NAV-POSLLH
6DF7C	1	13	811CE1	UNKNOWN
6DF84	1	14	811D33	UNKNOWN
6DF8C	1	4	810593	NAV-DOP
6DF94	1	11	8109C7	NAV-VELECEF
6DF9C	1	12	810A0D	NAV-VELNED
6DFA4	1	20	810A95	NAV-TIMEGPS
6DFAC	1	23	810B03	NAV-TIMEGLO
6DFB4	1	24	810B99	NAV-TIMEBDS
6DFBC	1	21	810C37	NAV-TIMEUTC
6DFC4	1	26	810CFD	NAV-TIMELS
6DFCC	1	22	810DB3	NAV-CLOCK
6DFD4	1	9	8117AB	NAV-ODO
6DFDC	1	36	811803	UNKNOWN
6DFE4	1	3B	811993	NAV-SVIN
6DFEC	1	3C	811B05	NAV-RELPOSNED
6DFF4	D	6	812E0F	UNKNOWN
6DFFC	1	39	8118A3	NAV-GEOFENCE
6E004	F0	A	8041EB	NMEA
6E00C	F0	4	80512F	NMEA
6E014	F0	5	805247	NMEA
6E01C	F0	D	804709	NMEA
6E024	F0	0	80451D	NMEA
6E02C	F0	2	804B1F	NMEA
6E034	F0	3	804DC9	NMEA
6E03C	F0	1	804A95	NMEA
6E044	F0	6	8048DF	NMEA
6E04C	F0	7	804C49	NMEA
6E054	F0	8	805339	NMEA
6E05C	F0	9	80434F	NMEA
6E064	F0	F	805393	NMEA
6E06C	F1	0	8055D9	pubx00
6E074	F1	3	8057DD	pubx03
6E07C	F1	4	805925	pubx04
6E084	B	1	808FD7	AID-INI
6E08C	C	31	80CA97	UNKNOWN
6E094	C	14	80C8C7	UNKNOWN
6E09C	C	34	80CD91	UNKNOWN
6E0A4	C	43	80D723	UNKNOWN
6E0AC	2	20	812065	RXM-SVSI
6E0B4	2	23	8125A1	UNKNOWN
6E0BC	2	53	8129BB	UNKNOWN
6E0C4	1	61	811973	UNKNOWN
6E0CC	B	31	8093A5	AID-EPH
6E0D4	B	30	80926F	AID-ALM
6E0DC	D	3	812C25	TIM-TM2
6E0E4	D	1	812CFF	TIM-TP
6E0EC	D	10	812E55	UNKNOWN
6E0F4	A	1B	80F577	UNKNOWN
6E0FC	A	11	80F48B	UNKNOWN
6E104	A	6	80F595	MON-MSGPP
6E10C	A	8	80F653	MON-TXBUF
6E114	A	7	80F607	MON-RXBUF
6E11C	A	2	80F6B1	MON-IO
6E124	A	1E	80F78D	UNKNOWN
6E12C	A	5	80F8AD	MON-EXCEPT
6E134	A	9	80F96D	MON-HW
6E13C	A	B	80FA8F	MON-HW2
6E144	A	D	80FAEB	MON-LLC
6E14C	A	26	80F767	UNKNOWN
6E154	A	1F	80F801	UNKNOWN
6E15C	A	1D	80F713	MON-SPEC
6E164	A	22	80F895	UNKNOWN
6E16C	A	23	810045	UNKNOWN
6E174	A	25	8100E7	UNKNOWN
6E17C	9	13	813C8D	UNKNOWN
6E184	C	35	80D157	UNKNOWN
6E18C	2	14	812155	RXM-MEASX
6E194	A	2B	80FCA5	UNKNOWN
6E19C	3	9	812FDD	UNKNOWN
6E1A4	3	10	8132EB	TRK-MEAS
6E1AC	3	B	813135	UNKNOWN
6E1B4	3	F	812FD9	TRK-SFRBX
6E1BC	2	13	81214F	RXM-SFRBX
6E1C4	C	10	80C865	UNKNOWN
6E1CC	C	19	80C999	UNKNOWN
6E1D4	2	57	812623	UNKNOWN
6E1DC	2	51	812833	UNKNOWN
6E1E4	2	52	8128FB	UNKNOWN
6E1EC	3	11	813231	UNKNOWN
6E1F4	21	8	80D9D9	LOG-INFO
6E1FC	C	20	80CD5D	UNKNOWN
6E204	2	32	8129DF	UNKNOWN
6E20C	C	49	80D2C1	UNKNOWN
6E214	C	41	80D1B7	UNKNOWN
6E21C	2	15	812129	RXM-RAWX
6E224	F5	1	808A11	UNKNOWN
6E22C	F5	9	808A2F	UNKNOWN
6E234	F5	2	808A17	UNKNOWN
6E23C	F5	A	808A35	UNKNOWN
6E244	F5	5	808A1D	RTCM1005
6E24C	F5	6	808A23	UNKNOWN
6E254	F5	7	808A29	UNKNOWN
6E25C	F5	4D	808A3B	RTCM1077
6E264	F5	57	808A41	RTCM1087
6E26C	F5	7F	808A47	UNKNOWN
6E274	1	1	1010101	NAV-POSECEF
6E27C	1	1	1010101	NAV-POSECEF
6E284	1	1	1010101	NAV-POSECEF
6E28C	1	1	1010101	NAV-POSECEF
6E294	1	1	1010101	NAV-POSECEF
6E29C	1	1	1010101	NAV-POSECEF
6E2A4	1	1	1010101	NAV-POSECEF
6E2AC	1	1	1010101	NAV-POSECEF
6E2B4	1	1	1010101	NAV-POSECEF
6E2BC	1	1	1010101	NAV-POSECEF
6E2C4	1	1	1010101	NAV-POSECEF
6E2CC	1	1	40404004	NAV-POSECEF
6E2D4	40	40	404040	UNKNOWN
6E2DC	32	32	35013401	UNKNOWN
6E2E4	1	36	4F054A13	UNKNOWN
6E2EC	2	51	55015401	UNKNOWN
6E2F4	1	56	59015801	UNKNOWN
6E2FC	1	5A	5D015C01	UNKNOWN
6E304	A	0	140F1	UNKNOWN
6E30C	29	5A	0	UNKNOWN
6E31C	F	5B	0	UNKNOWN
6E32C	6D	54	0	UNKNOWN
6E33C	B3	54	0	UNKNOWN
6E34C	F9	54	0	UNKNOWN
6E35C	3F	55	0	UNKNOWN
6E36C	CF	8C	0	UNKNOWN
6E374	61	0	1020B	UNKNOWN
6E37C	2D	95	0	UNKNOWN
6E38C	9F	92	0	UNKNOWN
6E39C	D5	93	0	UNKNOWN
6E3AC	FF	E1	0	UNKNOWN
6E3BC	E3	E6	0	UNKNOWN
6E3CC	C7	EA	0	UNKNOWN
6E3DC	D5	EE	0	UNKNOWN
6E3EC	5D	F2	0	UNKNOWN
6E3FC	6F	99	0	UNKNOWN
6E404	1	0	10206	UNKNOWN
6E40C	37	9A	0	UNKNOWN
6E414	1	0	10406	UNKNOWN
6E41C	F9	9A	0	UNKNOWN
6E424	9	0	10006	UNKNOWN
6E42C	A1	96	0	UNKNOWN
6E434	1	0	11B06	UNKNOWN
6E43C	BF	9A	8198A5	UNKNOWN
6E444	D9	0	15806	UNKNOWN
6E44C	C5	9A	0	UNKNOWN
6E454	5	0	10906	ACK-NACK
6E45C	25	9B	0	UNKNOWN
6E464	1	0	12206	UNKNOWN
6E46C	25	9B	0	UNKNOWN
6E474	1	0	15006	UNKNOWN
6E47C	19	B4	0	UNKNOWN
6E484	1	0	12706	UNKNOWN
6E48C	5B	A8	0	UNKNOWN
6E494	1	0	11306	UNKNOWN
6E49C	C9	9B	851301	UNKNOWN
6E4A4	9	0	14106	UNKNOWN
6E4AC	49	AD	0	UNKNOWN
6E4BC	2B	B9	0	UNKNOWN
6E4CC	B7	AF	0	UNKNOWN
6E4D4	1	0	13406	UNKNOWN
6E4DC	CF	9B	857CC5	UNKNOWN
6E4E4	1	0	10506	UNKNOWN
6E4EC	DD	9B	0	UNKNOWN
6E4F4	11	0	12006	UNKNOWN
6E4FC	21	9C	0	UNKNOWN
6E504	1	0	13C06	UNKNOWN
6E50C	F9	AB	0	UNKNOWN
6E514	1	0	14906	UNKNOWN
6E51C	3	9C	814397	UNKNOWN
6E524	1	0	14706	UNKNOWN
6E52C	83	B0	801A55	UNKNOWN
6E534	19	0	10721	UNKNOWN
6E53C	13	DC	0	UNKNOWN
6E54C	C7	DB	0	UNKNOWN
6E55C	B5	DA	0	UNKNOWN
6E564	1	0	10921	UNKNOWN
6E56C	1F	DB	0	UNKNOWN
6E57C	57	DB	0	UNKNOWN
6E58C	8F	DB	0	UNKNOWN
6E59C	E5	9E	809DC5	UNKNOWN
6E5A4	1	0	10806	UNKNOWN
6E5AC	A9	A0	80A087	UNKNOWN
6E5B4	D	0	13106	UNKNOWN
6E5BC	D3	A0	0	UNKNOWN
6E5C4	1	0	14206	UNKNOWN
6E5CC	4B	A2	80A22B	UNKNOWN
6E5D4	1	0	14306	UNKNOWN
6E5DC	D5	A3	80A38B	UNKNOWN
6E5E4	41	0	12406	UNKNOWN
6E5EC	13	A9	80A86F	UNKNOWN
6E5F4	49	0	12306	UNKNOWN
6E5FC	E9	AA	80A9EF	UNKNOWN
6E604	51	0	10606	UNKNOWN
6E60C	E7	A4	80A3E1	UNKNOWN
6E614	1	0	11106	UNKNOWN
6E61C	B3	A7	80A785	UNKNOWN
6E624	5	0	17006	ACK-NACK
6E62C	73	A7	80A757	UNKNOWN
6E634	9	0	15B06	UNKNOWN
6E63C	9	A8	8012A7	UNKNOWN
6E644	9	0	16506	UNKNOWN
6E64C	4D	BA	0	UNKNOWN
6E65C	63	B7	80B74D	UNKNOWN
6E664	7	0	17106	UNKNOWN
6E66C	51	BA	0	UNKNOWN
6E67C	41	A8	80A81F	UNKNOWN
6E684	11	0	15906	UNKNOWN
6E68C	89	B0	0	UNKNOWN
6E694	1	0	15A06	UNKNOWN
6E69C	79	B2	0	UNKNOWN
6E6A4	1	0	13E06	UNKNOWN
6E6AC	D7	A5	0	UNKNOWN
6E6B4	1	0	14406	UNKNOWN
6E6BC	E5	9C	809CB7	UNKNOWN
6E6C4	11	0	14A06	UNKNOWN
6E6CC	63	9D	809D0D	UNKNOWN
6E6D4	31	0	11506	UNKNOWN
6E6DC	8B	9B	0	UNKNOWN
6E6E4	1	0	15506	UNKNOWN
6E6EC	6F	A5	80A511	UNKNOWN
6E6F4	49	0	11E06	UNKNOWN
6E6FC	B9	B4	80B467	UNKNOWN
6E704	29	0	11001	UNKNOWN
6E70C	E9	17	0	UNKNOWN
6E714	1	0	16606	UNKNOWN
6E71C	45	B5	80B50F	UNKNOWN
6E724	1	0	18406	UNKNOWN
6E72C	73	B7	0	UNKNOWN
6E73C	D5	B7	0	UNKNOWN
6E74C	F9	27	8127F5	UNKNOWN
6E754	1	0	1060D	UNKNOWN
6E75C	43	2E	0	UNKNOWN
6E76C	79	F4	0	UNKNOWN
6E77C	49	F9	0	UNKNOWN
6E78C	9D	0	0	UNKNOWN
6E79C	DD	FB	0	UNKNOWN
6E7AC	9	1	0	UPD-DOWNL
6E7BC	6D	3	0	UNKNOWN
6E7CC	8F	35	0	UNKNOWN
6E7DC	5D	36	0	UNKNOWN
6E7EC	97	36	0	UNKNOWN
6E7FC	1	39	0	NAV-GEOFENCE
6E80C	17	37	0	UNKNOWN
6E81C	63	38	0	UNKNOWN
6E82C	93	37	0	UNKNOWN
6E83C	81	34	0	UNKNOWN
6E84C	97	37	0	UNKNOWN
